{
  "cidades": [
    {
      "nome": "Santa Maria",
      "latitude": -29.682576,
      "longitude": -53.826172,
      "zoom": 15
    },
    {
      "nome": "Santa Maria Part.2",
      "latitude": -29.722723,
      "longitude": -53.845400,
      "zoom": 15
    },
    {
      "nome": "Itaara",
      "latitude": -29.564657,
      "longitude": -53.777197,
      "zoom": 13.5
    },
    {
      "nome": "Rosário do Sul",
      "latitude": -30.204799,
      "longitude": -54.973142,
      "zoom": 12.5
    },
    {
      "nome": "Alegrete",
      "latitude": -29.788333,
      "longitude": -55.792940,
      "zoom": 15
    },
    {
      "nome": "Uruguaiana",
      "latitude": -29.775256,
      "longitude": -57.098925,
      "zoom": 16
    },
    {
      "nome": "São Gabriel",
      "latitude": -30.336956,
      "longitude": -54.318932,
      "zoom": 16
    },
    {
      "nome": "Cachoeira do Sul",
      "latitude": -30.051876,
      "longitude": -52.897777,
      "zoom": 19
    },
    {
      "nome": "Cruz Alta",
      "latitude": -28.649779,
      "longitude": -53.600216,
      "zoom": 14
    },
    {
      "nome": "Santiago",
      "latitude": -29.185143,
      "longitude": -54.870089,
      "zoom": 15
    },
    {
      "nome": "São Borja",
      "latitude": -28.645968,
      "longitude": -56.013223,
      "zoom": 17
    },
    {
      "nome": "Itaqui",
      "latitude": -29.157448,
      "longitude": -56.550627,
      "zoom": 13.5
    }
  ],
  "intervaloTroca": 52000,
  "duracaoTransicao": 2
}